{"count":4,"min_duration":2220,"rawtime":2220,"max_duration":3660,"maxtime":3660,"connections":[{"from":"Bern","departure":"2022-03-29 04:18:00","to":"Aarau","arrival":"2022-03-29 04:55:00","duration":2220,"is_main":true,"legs":[{"departure":"2022-03-29 04:18:00","tripid":"T2022_002155_000011_101_e48329b_0","stopid":"8507000","x":600038,"y":199750,"name":"Bern","sbb_name":"Bern","type":"express_train","line":"IR","terminal":"Zürich Flughafen","fgcolor":"fff","bgcolor":"f00","*G":"IR","*Z":"002155","operator":"SBB","stops":[{"name":"Bahn-2000-Strecke","stopid":"0000132","x":619000,"y":227300,"lon":7.689367,"lat":47.196371},{"arrival":"2022-03-29 04:44:00","departure":"2022-03-29 04:46:00","name":"Olten","stopid":"8500218","x":635442,"y":244671,"lon":7.907707,"lat":47.351936}],"runningtime":2220,"exit":{"arrival":"2022-03-29 04:55:00","stopid":"8502113","x":646256,"y":249129,"name":"Aarau","sbb_name":"Aarau","track":"3","lon":8.051284,"lat":47.391361},"track":"6","attributes":{"1_1.1_OM":"Maskenpflicht für Reisende ab 12 Jahren","1_1.1_TT":"Neigezug"},"type_name":"Zug","lon":7.439136,"lat":46.948832},{"arrival":"2022-03-29 04:55:00","stopid":"8502113","x":646256,"y":249129,"name":"Aarau","sbb_name":"Aarau","normal_time":0,"stops":null,"lon":8.051284,"lat":47.391361}]},{"from":"Bern","departure":"2022-03-29 04:38:00","to":"Aarau","arrival":"2022-03-29 05:34:00","duration":3360,"is_main":true,"legs":[{"departure":"2022-03-29 04:38:00","tripid":"T2022_002353_000082_101_8e9bde0_0","stopid":"8507000","x":600038,"y":199750,"name":"Bern","sbb_name":"Bern","type":"express_train","line":"IR 35","terminal":"Chur","fgcolor":"fff","bgcolor":"f00","*G":"IR","*L":"35","*Z":"002353","operator":"SOB-sob","stops":[{"arrival":"2022-03-29 04:52:00","departure":"2022-03-29 04:54:00","name":"Burgdorf","stopid":"8508005","x":613907,"y":212203,"lon":7.621694,"lat":47.060703},{"arrival":"2022-03-29 05:05:00","departure":"2022-03-29 05:06:00","name":"Herzogenbuchsee","stopid":"8508008","x":619882,"y":226382,"lon":7.700966,"lat":47.188088},{"arrival":"2022-03-29 05:11:00","departure":"2022-03-29 05:12:00","name":"Langenthal","stopid":"8508100","x":626216,"y":229654,"lon":7.784728,"lat":47.217298},{"arrival":"2022-03-29 05:24:00","departure":"2022-03-29 05:26:00","name":"Olten","stopid":"8500218","x":635442,"y":244671,"lon":7.907707,"lat":47.351936}],"runningtime":3360,"exit":{"arrival":"2022-03-29 05:34:00","stopid":"8502113","x":646256,"y":249129,"name":"Aarau","sbb_name":"Aarau","track":"3","lon":8.051284,"lat":47.391361},"track":"10","attributes":{"0_8.1_R":"Platzreservierung möglich","1_1.1_OM":"Maskenpflicht für Reisende ab 12 Jahren","1_4.7_FS":"Gratis-Internet mit der App SBB FreeSurf","1_7.3_SN":"Cateringzone / Automaten"},"type_name":"Zug","lon":7.439136,"lat":46.948832},{"arrival":"2022-03-29 05:34:00","stopid":"8502113","x":646256,"y":249129,"name":"Aarau","sbb_name":"Aarau","normal_time":0,"stops":null,"lon":8.051284,"lat":47.391361}]},{"from":"Bern","departure":"2022-03-29 05:29:00","to":"Aarau","arrival":"2022-03-29 06:11:00","duration":2520,"is_main":true,"legs":[{"departure":"2022-03-29 05:29:00","tripid":"T2022_000703_000011_101_c0cc173_0","stopid":"8507000","x":600038,"y":199750,"name":"Bern","sbb_name":"Bern","type":"express_train","line":"IC 1","terminal":"St. Gallen","fgcolor":"fff","bgcolor":"f00","*G":"IC","*L":"1","*Z":"000703","operator":"SBB","stops":[{"name":"Bahn-2000-Strecke","stopid":"0000132","x":619000,"y":227300,"lon":7.689367,"lat":47.196371}],"runningtime":1560,"exit":{"arrival":"2022-03-29 05:55:00","stopid":"8500218","x":635442,"y":244671,"name":"Olten","sbb_name":"Olten","waittime":420,"track":"7","lon":7.907707,"lat":47.351936},"track":"3","attributes":{"0_1.4_WR":"Restaurant","0_4.8_RZ":"Ruhezone in 1. Klasse","1_1.1_OM":"Maskenpflicht für Reisende ab 12 Jahren","1_4.6_FA":"Familienwagen mit Spielplatz","1_4.7_BZ":"Businesszone in 1. Klasse","1_4.7_FS":"Gratis-Internet mit der App SBB FreeSurf"},"type_name":"Zug","lon":7.439136,"lat":46.948832},{"arrival":"2022-03-29 05:55:00","departure":"2022-03-29 06:02:00","tripid":"T2022_002159_000011_101_ad33827_0","stopid":"8500218","x":635442,"y":244671,"name":"Olten","sbb_name":"Olten","type":"express_train","line":"IR 16","terminal":"Zürich HB","waittime":420,"normal_time":300,"fgcolor":"fff","bgcolor":"f00","*G":"IR","*L":"16","*Z":"002159","operator":"SBB","stops":[],"runningtime":540,"exit":{"arrival":"2022-03-29 06:11:00","stopid":"8502113","x":646256,"y":249129,"name":"Aarau","sbb_name":"Aarau","track":"1","lon":8.051284,"lat":47.391361},"track":"2","attributes":{"1_1.1_OM":"Maskenpflicht für Reisende ab 12 Jahren","1_4.7_FS":"Gratis-Internet mit der App SBB FreeSurf"},"type_name":"Zug","lon":7.907707,"lat":47.351936},{"arrival":"2022-03-29 06:11:00","stopid":"8502113","x":646256,"y":249129,"name":"Aarau","sbb_name":"Aarau","normal_time":0,"stops":null,"lon":8.051284,"lat":47.391361}]},{"from":"Bern","departure":"2022-03-29 05:38:00","to":"Aarau","arrival":"2022-03-29 06:39:00","duration":3660,"is_main":true,"legs":[{"departure":"2022-03-29 05:38:00","tripid":"T2022_002357_000011_101_1fd2442_0/T2022_004509_000011_101_9bab640_0","stopid":"8507000","x":600038,"y":199750,"name":"Bern","sbb_name":"Bern","type":"express_train","line":"IR 35","terminal":"Zürich HB","fgcolor":"fff","bgcolor":"f00","*G":"IR","*L":"35","*Z":"002357","operator":"SBB","stops":[{"arrival":"2022-03-29 05:51:00","departure":"2022-03-29 05:53:00","name":"Burgdorf","stopid":"8508005","x":613907,"y":212203,"lon":7.621694,"lat":47.060703},{"arrival":"2022-03-29 06:04:00","departure":"2022-03-29 06:05:00","name":"Herzogenbuchsee","stopid":"8508008","x":619882,"y":226382,"lon":7.700966,"lat":47.188088},{"arrival":"2022-03-29 06:10:00","departure":"2022-03-29 06:12:00","name":"Langenthal","stopid":"8508100","x":626216,"y":229654,"lon":7.784728,"lat":47.217298},{"arrival":"2022-03-29 06:24:00","departure":"2022-03-29 06:26:00","name":"Olten","stopid":"8500218","x":635442,"y":244671,"lon":7.907707,"lat":47.351936}],"runningtime":3660,"exit":{"arrival":"2022-03-29 06:39:00","stopid":"8502113","x":646256,"y":249129,"name":"Aarau","sbb_name":"Aarau","track":"1","lon":8.051284,"lat":47.391361},"track":"7","attributes":{"1_1.1_OM":"Maskenpflicht für Reisende ab 12 Jahren","1_4.7_FS":"Gratis-Internet mit der App SBB FreeSurf"},"type_name":"Zug","lon":7.439136,"lat":46.948832},{"arrival":"2022-03-29 06:39:00","stopid":"8502113","x":646256,"y":249129,"name":"Aarau","sbb_name":"Aarau","normal_time":0,"stops":null,"lon":8.051284,"lat":47.391361}]}],"url":"https://fahrplan.search.ch/Bern..Aarau","points":[{"text":"Bern","url":"https://map.search.ch/Bern","id":"8507000","x":"600038","y":"199750","lon":7.439136,"lat":46.948832},{"text":"Aarau","url":"https://map.search.ch/Aarau","id":"8502113","x":"646256","y":"249129","lon":8.051284,"lat":47.391361}],"description":"Von Bern nach Aarau am Dienstag 29.03.2022","request":null,"eof":1}